City,Cloudiness,Country,Date,Humidity,Lat,Lng,Max Temp,Wind Speed
Ushuaia,75,AR,1638730640,71,-54.8,-68.3,46.06,33.38
Sokoni,100,TZ,1638730345,75,-6.4333,39.55,80.46,9.01
Linqu,70,CN,1638730643,58,36.5156,118.5397,40.5,5.5
Upernavik,100,GL,1638730644,73,72.7868,-56.1549,27.75,1.41
Saint George,6,US,1638730645,26,37.1041,-113.5841,68.34,3.02
Hasaki,100,JP,1638730646,63,35.7333,140.8333,45.28,10.27
Asău,100,RO,1638730328,84,46.4333,26.4,34.95,3.36
Churapcha,100,RU,1638730649,98,62.0025,132.4325,-14.58,5.77
Mokhsogollokh,100,RU,1638730650,96,61.4681,128.9203,-5.46,4.14
Christchurch,90,NZ,1638730558,88,-43.5333,172.6333,51.01,1.99
Hilo,100,US,1638730652,85,19.7297,-155.09,77.29,12.17
Atuona,8,PF,1638730653,75,-9.8,-139.0333,78.48,21.05
Mataura,100,NZ,1638730655,95,-46.1927,168.8643,46.47,2.26
Busselton,29,AU,1638730656,83,-33.65,115.3333,61.05,15.75
Athabasca,100,CA,1638730657,65,54.7169,-113.2854,-5.98,12.03
Matara,100,LK,1638730658,92,5.9485,80.5353,76.03,2.66
Yellowknife,20,CA,1638730659,83,62.456,-114.3525,-18.71,6.91
Linxia Chengguanzhen,0,CN,1638730472,57,35.6003,103.2064,28.63,2.08
Vagay,51,RU,1638730661,93,57.9375,69.0217,12.22,5.84
Caxias,40,PT,1638730663,73,38.7031,-9.2767,57.02,1.01
Bhan,0,PK,1638730664,29,26.5583,67.7214,68.95,1.9
Hobyo,8,SO,1638730430,75,5.3505,48.5268,79.18,17.74
Ganzhou,0,CN,1638730666,54,28.8184,115.4327,48.96,2.68
Albany,94,US,1638730667,53,42.6001,-73.9662,42.75,1.01
Husavik,100,IS,1638730261,75,66.0449,-17.3389,37.31,18.81
Tiksi,100,RU,1638730288,94,71.6872,128.8694,-13.13,5.57
Mar del Plata,40,AR,1638730670,85,-38.0023,-57.5575,68.02,13
St. George's,20,GD,1638730671,66,12.0564,-61.7485,85.68,23.02
Rikitea,98,PF,1638730673,75,-23.1203,-134.9692,75.76,7.85
Hirara,83,JP,1638730341,66,24.8,125.2833,70.92,20.18
Talnakh,100,RU,1638730466,99,69.4865,88.3972,-21.8,13.78
Cidreira,38,BR,1638730263,81,-30.1811,-50.2056,72.97,15.9
Yulara,0,AU,1638730242,64,-25.2406,130.9889,67.84,8.05
Tsimmerbude,100,RU,1638730401,93,54.675,20.1347,28.45,14.36
Saint-Philippe,38,RE,1638730177,79,-21.3585,55.7679,78.39,10.04
Lumphat,64,KH,1638730612,95,13.4878,106.9816,63.82,3.18
Alghero,40,IT,1638730495,93,40.5589,8.3181,46.49,4.61
Bulolo,17,PG,1638730683,97,-7.2,146.65,68.79,2.64
Nogliki,100,RU,1638730684,87,51.8333,143.1667,18.32,11.7
Qaanaaq,100,GL,1638730685,73,77.484,-69.3632,19.45,6.29
Isangel,75,VU,1638730100,100,-19.55,169.2667,73.51,2.3
Henties Bay,0,NA,1638730499,84,-22.116,14.2845,62.85,10
Arraial do Cabo,0,BR,1638729952,74,-22.9661,-42.0278,84.16,23.02
Puerto Ayora,67,EC,1638730689,82,-0.7393,-90.3518,75.16,9.71
Puro,23,PH,1638730690,79,12.4841,123.3827,76.32,12.24
Castro,95,BR,1638730691,62,-24.7911,-50.0119,73,4.59
Muros,57,ES,1638730692,91,42.7762,-9.0603,54.84,9.42
Mount Gambier,100,AU,1638730385,100,-37.8333,140.7667,44.51,0
Adrar,100,MR,1638730695,12,20.5022,-10.0711,67.32,11.9
Hobart,90,AU,1638730696,75,-42.8794,147.3294,51.06,1.01
Puerto Colombia,55,CO,1638730697,73,10.9878,-74.9547,87.89,19.06
Saint Paul Harbor,75,US,1638730698,100,57.79,-152.4072,26.11,3.44
Bam,10,IR,1638730699,42,29.106,58.357,54.88,3.13
Benalla,55,AU,1638730700,63,-36.55,145.9833,56.95,7.96
Guerrero Negro,2,MX,1638730701,64,27.9769,-114.0611,69.13,13.27
Dikson,100,RU,1638730128,94,73.5069,80.5464,2.28,8.66
Aklavik,20,CA,1638730704,76,68.2191,-135.0107,-12.17,4.61
Pimentel,0,PE,1638730705,64,-6.8367,-79.9342,73.69,14.97
Kruisfontein,94,ZA,1638730212,85,-34.0033,24.7314,67.89,6.02
Otjiwarongo,0,NA,1638730707,10,-20.4637,16.6477,68.72,9.93
Tecpan,13,GT,1638730708,49,14.7623,-90.9947,71.46,6.31
Vanimo,92,PG,1638730465,83,-2.6741,141.3028,79.12,6.73
Ilog,100,PH,1638730710,82,10.0266,122.7684,75.09,5.66
Longyearbyen,75,SJ,1638730125,73,78.2186,15.6401,13.84,11.5
Pucallpa,75,PE,1638730712,74,-8.3791,-74.5539,82.44,6.91
Bengkulu,100,ID,1638730714,91,-3.8004,102.2655,74.97,8.28
Chui,93,UY,1638730715,65,-33.6971,-53.4616,71.78,11.92
Kapuskasing,90,CA,1638730716,79,49.4169,-82.4331,10.49,4.61
Karratha,10,AU,1638730717,34,-20.7377,116.8463,86.13,15.3
La Baule-Escoublac,20,FR,1638730718,79,47.2922,-2.364,48.87,9.22
Ribeira Grande,40,PT,1638730719,68,38.5167,-28.7,64.8,8.05
Cape Town,90,ZA,1638730629,89,-33.9258,18.4232,64.11,4
Aquiraz,7,BR,1638730721,68,-3.9014,-38.3911,86.09,14.29
Vaini,75,TO,1638730722,94,-21.2,-175.2,75.36,8.05
Terrace,90,CA,1638730723,93,54.5163,-128.6035,30.42,3.44
Serenje,11,ZM,1638730725,39,-13.2325,30.2352,71.47,4
Hermanus,100,ZA,1638730726,94,-34.4187,19.2345,63.9,11.65
Kangaatsiaq,100,GL,1638730727,92,68.3065,-53.4641,31.15,17.85
Punta Arenas,20,CL,1638730728,38,-53.15,-70.9167,57.31,36.82
George Town,20,MY,1638730729,84,5.4112,100.3354,78.89,5.01
Shibetsu,1,JP,1638730730,67,43.659,145.132,32.05,8.08
Bilma,24,NE,1638730316,17,18.6853,12.9164,70.02,8.72
Atambua,100,ID,1638730732,88,-9.1061,124.8925,74.68,2.39
Evensk,15,RU,1638730733,81,61.95,159.2333,-15.32,6.82
Port Hardy,75,CA,1638730536,93,50.6996,-127.4199,35.6,4.61
Alice Springs,1,AU,1638730736,60,-23.7,133.8833,67.55,3.44
Jamestown,90,US,1638730462,42,42.097,-79.2353,42.53,10
Porbandar,0,IN,1638730738,52,21.6422,69.6093,74.64,11.52
Buta,100,CD,1638730739,94,2.7858,24.73,73.13,2.66
Thompson,20,CA,1638730245,76,55.7435,-97.8558,-18.24,9.22
Saldanha,13,ZA,1638730741,93,-33.0117,17.9442,62.65,16.02
Ostrovnoy,99,RU,1638730183,75,68.0531,39.5131,7.5,20.13
Tshela,100,CD,1638730743,97,-4.9833,12.9333,74.77,2.42
Cherskiy,83,RU,1638730562,100,68.75,161.3,-46.66,4.85
Avarua,20,CK,1638730746,83,-21.2078,-159.775,80.65,6.91
Pevek,100,RU,1638730747,96,69.7008,170.3133,-8.84,6.44
Aberchirder,23,GB,1638730748,84,57.5601,-2.6286,37.89,3.69
Quelimane,0,MZ,1638730698,78,-17.8786,36.8883,82.35,15.01
Al Bardīyah,0,LY,1638730750,65,31.7561,25.0865,62.46,5.28
Clyde River,100,CA,1638730282,85,70.4692,-68.5914,10.63,40.29
Airai,100,TL,1638730174,91,-8.9266,125.4092,61.65,1.61
Hong Kong,92,HK,1638730526,70,22.2855,114.1577,65.32,1.01
Olafsvik,100,IS,1638730343,90,64.8945,-23.7142,42.12,23.64
Bluff,95,NZ,1638730755,51,-46.6,168.3333,46.8,10.51
Vila Franca do Campo,66,PT,1638730756,78,37.7167,-25.4333,65.19,3.85
Bambanglipuro,99,ID,1638730272,87,-7.95,110.2833,65.61,5.01
Plouzané,75,FR,1638730759,71,48.3833,-4.6167,50.09,12.66
Barrow,100,US,1638730760,82,71.2906,-156.7887,8.33,15.08
New Norfolk,91,AU,1638730761,64,-42.7826,147.0587,50.72,2.62
Port Alfred,100,ZA,1638730762,95,-33.5906,26.891,69.4,9.84
Comodoro Rivadavia,20,AR,1638730577,33,-45.8667,-67.5,73.26,20.71
Pacific Grove,1,US,1638730764,78,36.6177,-121.9166,69.8,4
Bambous Virieux,40,MU,1638730765,73,-20.3428,57.7575,79.21,9.22
Chokurdakh,61,RU,1638730766,100,70.6333,147.9167,-42.45,4.94
Ancud,8,CL,1638730767,58,-41.8697,-73.8203,72.93,6.98
Saskylakh,100,RU,1638730769,95,71.9167,114.0833,-23.33,9.73
Saint-Augustin,100,CA,1638730357,54,51.226,-58.6502,23.45,8.12
Moree,64,AU,1638730771,82,-29.4667,149.85,60.82,9.22
Adeje,20,ES,1638730772,61,28.1227,-16.726,69.31,20.71
Erdenet,12,MN,1638730773,52,49.0333,104.0833,17.13,4.94
Keti Bandar,0,PK,1638730774,68,24.1447,67.4497,73.74,6.17
Naze,79,JP,1638730775,70,28.3667,129.4833,62.62,15.7
Cabo San Lucas,100,MX,1638730776,67,22.8909,-109.9124,84.51,1.99
Wuwei,37,CN,1638730778,34,37.9281,102.6414,30.11,5.23
Katsuura,100,JP,1638730779,73,35.1333,140.3,48.31,12.62
Bida,15,NG,1638730780,23,9.0833,6.0167,85.42,4.27
Bara,81,NG,1638730781,24,10.3744,10.7288,80.83,7.94
Leningradskiy,100,RU,1638730782,98,69.3833,178.4167,-2.7,11.9
Cockburn Town,49,TC,1638730240,75,21.4612,-71.1419,80.55,19.28
Nouadhibou,19,MR,1638730784,27,20.931,-17.0347,78.78,8.05
Arrondissement de Dreux,85,FR,1638730785,84,48.6667,1.25,41.43,16.53
Ulladulla,100,AU,1638730786,68,-35.35,150.4667,55.09,2.06
Dunedin,100,NZ,1638730787,66,-45.8742,170.5036,54.81,3
Manadhoo,64,MV,1638730789,75,5.7667,73.3833,82.42,10.22
Ongandjera,75,NA,1638730790,30,-17.8833,15.0667,84.87,8.52
Te Anau,77,NZ,1638730195,93,-45.4167,167.7167,43.83,6.02
Litherland,75,GB,1638730792,82,53.4699,-2.9981,43.79,6.91
Fairbanks,1,US,1638730632,76,64.8378,-147.7164,-9.02,0
Binzhou,100,CN,1638730794,57,37.3667,118.0167,41.95,3.27
Utete,100,TZ,1638730795,96,-7.986,38.758,73,3.31
College,100,US,1638730796,81,64.8569,-147.8028,-1.34,3.94
Alingsås,39,SE,1638730798,92,57.9303,12.5335,24.75,7.36
Qui Nhon,100,VN,1638730799,90,13.7667,109.2333,71.26,17.13
Kenai,100,US,1638730735,89,60.5544,-151.2583,16.14,9.33
Buchanan,69,LR,1638730822,80,5.8808,-10.0467,75.16,6.8
Ustka,100,PL,1638730829,92,54.5805,16.8619,35.51,20.49
Butaritari,100,KI,1638730831,81,3.0707,172.7902,82.02,13.98
Kurchum,100,KZ,1638730835,85,48.5722,83.6542,19.27,2.24
Bloomsburg,100,US,1638730836,42,41.0037,-76.4549,49.41,6.55
Andra,75,RU,1638730837,100,62.5147,65.8878,-17.72,3.2
Russell,75,US,1638730840,59,32.3502,-85.1999,74.37,5.75
Vao,100,NC,1638730841,82,-22.6667,167.4833,74.73,16.02
Luganville,28,VU,1638730842,83,-15.5333,167.1667,78.24,3.6
Faya,0,SA,1638730281,67,18.3851,42.4509,57.31,3.11
Kahului,100,US,1638730845,79,20.8947,-156.47,72.97,10.18
Nhulunbuy,100,AU,1638730846,89,-12.2333,136.7667,79.41,3.44
Sola,12,VU,1638730847,78,-13.8833,167.55,79.79,10.67
Kavieng,97,PG,1638730848,81,-2.5744,150.7967,81.86,9.31
Maningrida,99,AU,1638730255,77,-12.0667,134.2667,81.41,4.34
Nago,44,JP,1638730851,64,26.5881,127.9761,68.07,13.04
Almaznyy,100,RU,1638730852,96,48.0448,40.045,33.94,5.61
Kualakapuas,88,ID,1638730648,97,-3.0091,114.3876,78.96,4.88
Bredasdorp,100,ZA,1638730829,93,-34.5322,20.0403,63.28,5.39
Prince Albert,40,CA,1638730440,60,53.2001,-105.7677,-2.25,8.05
Port Moresby,75,PG,1638730623,100,-9.4431,147.1797,76.42,5.75
Klaksvík,45,FO,1638730273,57,62.2266,-6.589,32.92,6.11
Erenhot,0,CN,1638730859,60,43.6475,111.9767,22.59,6.11
Hobe Sound,75,US,1638730860,85,27.0595,-80.1364,78.98,8.05
Margate,99,GB,1638730865,84,51.3813,1.3862,43.7,5.01
Colón,13,PA,1638730867,78,9.3592,-79.9014,90.25,12.06
Lensk,100,RU,1638730868,95,60.7253,114.9278,-0.18,6.46
Torbay,75,CA,1638730401,63,47.6666,-52.7314,36.57,9.22
Khovd,100,MN,1638730329,58,48.0056,91.6419,18.82,1.14
Tasiilaq,97,GL,1638730872,83,65.6145,-37.6368,30.27,35.5
Camacha,75,PT,1638730873,77,33.0833,-16.3333,63.36,16.11
Berck,75,FR,1638730801,81,50.4,1.6,44.58,14.97
Hofn,100,IS,1638730875,73,64.2539,-15.2082,42.8,29.28
Markova,100,UA,1638730877,95,48.6758,24.4138,28.53,2.21
Souillac,40,MU,1638730878,73,-20.5167,57.5167,79.36,8.05
Chapais,100,CA,1638730879,84,49.7834,-74.8492,4.78,7.94
Ndioum,100,SN,1638730880,10,16.5129,-14.6471,89.2,9.64
Mmabatho,100,ZA,1638730881,80,-25.85,25.6333,65.62,5.06
Sainte-Anne-des-Monts,100,CA,1638730882,75,49.124,-66.4924,21.02,21.18
Carnarvon,0,AU,1638730883,73,-24.8667,113.6333,73.76,20.89
Severodvinsk,15,RU,1638730842,85,64.5635,39.8302,17.71,3.04
Guozhen,6,CN,1638730886,44,34.3659,107.359,45.07,4
Flin Flon,96,CA,1638730887,73,54.7682,-101.865,-6.92,10.76
Kapaa,40,US,1638730888,76,22.0752,-159.319,73.72,1.99
That Phanom,100,TH,1638730889,59,16.9364,104.7104,57.25,6.6
Geraldton,3,AU,1638730890,77,-28.7667,114.6,68.41,18.41
Ponta Delgada,75,PT,1638730891,63,37.7333,-25.6667,65.5,5.75
Riosucio,100,CO,1638730892,62,5.4216,-75.7032,72.03,0.81
Poum,7,NC,1638730894,79,-20.2333,164.0167,79.81,13.67
Kaitangata,100,NZ,1638730895,59,-46.2817,169.8464,51.93,4.88
Taft,0,IR,1638730896,34,31.7471,54.2088,42.75,2.3
Ndélé,95,CF,1638730897,25,8.4109,20.6473,82.87,4.41
Nuuk,75,GL,1638730849,68,64.1835,-51.7216,27.21,25.32
Westport,86,US,1638730836,46,41.1415,-73.3579,48.97,3
Qujing,65,CN,1638730900,90,25.4833,103.7833,45.37,1.97
Santa Maria,75,BR,1638730700,54,-29.6842,-53.8069,83.5,6.91
Harper,6,LR,1638730902,79,4.375,-7.7169,80.96,8.1
Tura,100,IN,1638730903,82,25.5198,90.2201,65.82,0.96
Petropavlovsk-Kamchatskiy,75,RU,1638730905,63,53.0452,158.6483,18.19,6.71
Hithadhoo,100,MV,1638730906,79,-0.6,73.0833,81.41,14.9
Gaurnadi,100,BD,1638730907,97,22.9667,90.2333,69.26,5.66
Madang,82,PG,1638730908,91,-5.2246,145.7966,77.27,1.45
Xinyu,0,CN,1638730870,57,27.8043,114.9334,48.54,2.57
Los Llanos de Aridane,75,ES,1638730893,70,28.6585,-17.9182,64.15,15.01
Gaomi,9,CN,1638730911,72,36.3833,119.7528,41,6.49
Kavaratti,80,IN,1638730912,70,10.5669,72.642,81.75,11.99
Danville,1,US,1638730913,39,36.586,-79.395,63.43,4
Inhambane,0,MZ,1638730914,81,-23.865,35.3833,78.73,15.48
Norman Wells,49,CA,1638730915,83,65.282,-126.8329,-17.09,5.06
City of Catbalogan,79,PH,1638730917,91,11.85,124.9167,70.41,4.63
Brae,100,GB,1638730918,65,60.3964,-1.353,40.91,9.78
Aragarças,100,BR,1638730919,63,-15.8975,-52.2508,85.42,6.69
Zhalantun,4,CN,1638730920,73,48,122.7167,22.15,13
Houma,40,US,1638730921,67,29.5958,-90.7195,80.01,9.22
Hualmay,100,PE,1638730922,79,-11.0964,-77.6139,69.64,10.25
Khatanga,100,RU,1638730923,96,71.9667,102.5,-15.81,11.88
Hambantota,40,LK,1638730901,100,6.1241,81.1185,75.54,2.3
Cap-Chat,100,CA,1638730926,73,49.1001,-66.6821,20.88,20.24
Acapulco de Juárez,0,MX,1638730927,59,16.8634,-99.8901,84.97,6.11
Shīeli,100,KZ,1638730928,69,44.1667,66.75,40.59,4.16
Sumenep,100,ID,1638730929,88,-7.0167,113.8667,77.9,4.14
East London,100,ZA,1638730930,98,-33.0153,27.9116,69.78,7.4
Thio,100,NC,1638730870,87,-21.6167,166.2167,73.36,10.78
Sinnamary,99,GF,1638730932,86,5.3833,-52.95,78.4,6.62
Strelka,100,RU,1638730934,95,58.0728,93.0344,27.3,10.96
Itarema,15,BR,1638730935,68,-2.9248,-39.9167,84.83,20.18
Olinda,40,BR,1638730639,74,-8.0089,-34.8553,83.93,8.05
Mezen',13,RU,1638730937,87,65.8522,44.24,11.08,6.76
Deputatsky,100,RU,1638730791,97,69.3,139.9,-21.24,2.17
Yeppoon,95,AU,1638730939,70,-23.1333,150.7333,73.18,14.79
Hamilton,1,US,1638730940,59,39.1834,-84.5333,57.24,1.01
Laguna,90,US,1638730941,93,38.421,-121.4238,71.44,3.44
Paoua,100,CF,1638730943,30,7.2427,16.4406,79.61,0.65
Sikeston,90,US,1638730856,100,36.8767,-89.5879,63.88,8.05
Atar,100,MR,1638730945,14,20.5169,-13.0499,76.21,10.85
Bata,100,GQ,1638730946,83,1.8639,9.7658,80.74,4.25
Severo-Kuril'sk,95,RU,1638730947,75,50.6789,156.125,31.12,24.99
Wajir,42,KE,1638730948,46,1.7471,40.0573,84.58,5.77
Port Elizabeth,100,ZA,1638730814,92,-33.918,25.5701,70.11,6.55
Yuzhno-Sukhokumsk,93,RU,1638730950,93,44.6581,45.6436,45.46,4.79
Poya,31,NC,1638730952,83,-21.35,165.15,77.54,4.99
Nome,100,US,1638730953,97,64.5011,-165.4064,28.17,26.46
Mayor Pablo Lagerenza,100,PY,1638730954,92,-19.9309,-60.7718,72.45,5.46
Jalu,0,LY,1638730955,57,29.0331,21.5482,59.4,5.93
Fortuna,90,US,1638730956,100,40.5982,-124.1573,50.32,0
Pisco,100,PE,1638730957,84,-13.7,-76.2167,70.02,5.64
Doka,0,SD,1638730959,22,13.5167,35.7667,81.05,9.73
Tuktoyaktuk,90,CA,1638730913,83,69.4541,-133.0374,-14.4,7.23
Nikolskoye,13,RU,1638730961,96,59.7035,30.7861,3.02,5.28
Alexandria,25,EG,1638730870,65,31.2156,29.9553,66.11,9.95
Pandan,95,PH,1638730963,81,14.0453,124.1694,76.12,14.14
Mazagão,88,BR,1638730964,76,-0.115,-51.2894,81.14,4.09
Wahpeton,90,US,1638730965,80,46.2652,-96.6059,34.02,21.85
Launceston,90,AU,1638730966,79,-41.45,147.1667,52.81,8.05
Nyaunglebin,28,MM,1638730968,86,17.95,96.7333,67.01,3.38
Karasjok,14,NO,1638730969,96,69.4719,25.5112,-2.09,6.93
Panama City,40,PA,1638730699,72,8.9936,-79.5197,90.18,5.75
Lavrentiya,100,RU,1638730971,98,65.5833,-171,30.31,18.25
Manyana,100,BW,1638730972,61,-23.4,21.7167,73.94,8.32
Zhangjiakou,5,CN,1638730973,50,40.81,114.8794,27.21,9.75
Srednekolymsk,70,RU,1638730974,99,67.45,153.6833,-48.64,4.92
Marsh Harbour,0,BS,1638730975,66,26.5412,-77.0636,78.35,13.15
Hervey Bay,4,AU,1638730976,92,-25.2986,152.8535,71.04,1.01
Ginir,4,ET,1638730977,38,7.1333,40.7,56.01,4.59
Ouargaye,0,BF,1638730979,12,11.5033,0.0572,85.46,4.79
Huarmey,100,PE,1638730980,78,-10.0681,-78.1522,70.65,10.74
Erzincan Province,75,TR,1638730981,93,39.75,39.5,29.5,2.3
Praia da Vitória,41,PT,1638730982,78,38.7333,-27.0667,62.76,4.79
Ayr,0,GB,1638730834,93,55.4627,-4.6339,32.2,5.75
Boa Vista,40,BR,1638730984,43,2.8197,-60.6733,93.18,13.8
Griffith,90,US,1638730985,89,41.5284,-87.4237,35.98,1.99
San Patricio,100,US,1638730986,62,28.017,-97.5169,84.61,17.72
Tautira,32,PF,1638730988,70,-17.7333,-149.15,84.22,17.72
Tetiiv,100,UA,1638730725,91,49.3767,29.6647,32.22,8.1
San Jose,90,US,1638730766,63,37.3394,-121.895,67.89,0
Krapivinskiy,100,RU,1638730991,92,54.9992,86.8133,28.04,8.34
Zhangye,13,CN,1638730878,39,38.9342,100.4517,31.01,6.96
Mahon,75,ES,1638730993,71,39.8885,4.2658,46.96,19.57
Samarai,100,PG,1638730994,78,-10.6167,150.6667,80.91,6.04
Yanam,7,IN,1638730995,88,16.7333,82.2167,75.6,3.29
Port Blair,2,IN,1638730996,72,11.6667,92.75,78.67,9.64
Lamar,90,US,1638730997,83,33.6668,-95.5836,74.35,18.41
Tezu,100,IN,1638730998,58,27.9167,96.1667,66.33,3.44
Vanderhoof,100,CA,1638731000,44,54.0166,-124.0198,24.96,5.5
Trincomalee,4,LK,1638731001,75,8.5711,81.2335,81.18,5.26
Broome,40,US,1638731002,58,42.2506,-75.833,43.21,1.99
Dingle,50,PH,1638731003,90,10.9995,122.6711,71.51,6.85
Pombia,0,IT,1638731004,82,45.653,8.6336,40.51,2.3
Ilulissat,75,GL,1638730842,51,69.2167,-51.1,33.82,16.11
Ereymentau,100,KZ,1638731006,82,51.6199,73.1033,28.83,9.73
Narsaq,100,GL,1638730841,83,60.9167,-46.05,28.62,6.89
Haines Junction,99,CA,1638731008,99,60.7522,-137.5108,-7.78,1.92
Canutama,100,BR,1638731009,85,-6.5339,-64.3831,82.69,3.18
Paamiut,100,GL,1638731010,66,61.994,-49.6678,26.6,22.03
Princeton,1,US,1638731012,68,25.5384,-80.4089,84,11.5
Dabat,0,ET,1638731013,31,12.9842,37.765,55.99,1.99
Pitimbu,54,BR,1638731014,73,-7.4706,-34.8086,84.79,12.93
Aksarka,42,RU,1638731015,97,66.5606,67.7975,-21.1,12.73
Briançon,67,FR,1638731016,97,44.9,6.65,25.75,3.44
Solnechnyy,100,RU,1638731017,92,50.7214,136.6319,10.06,5.19
Ukiah,1,US,1638731018,60,39.1502,-123.2078,71.44,3.44
Cuamba,94,MZ,1638731019,37,-14.8031,36.5372,80.04,3.65
Lubango,51,AO,1638730808,79,-14.9172,13.4925,61.52,1.97
Vīsāvadar,0,IN,1638731021,55,21.3833,70.6833,71.56,5.5
Lompoc,1,US,1638731023,63,34.6391,-120.4579,77.09,14
Manta,75,EC,1638731024,78,-0.95,-80.7333,80.38,11.5
Apúlia,39,PT,1638731025,84,41.4851,-8.7641,52.3,14.34
Sittwe,6,MM,1638731026,78,20.15,92.9,77.7,4.14
Vila Velha,20,BR,1638730992,79,-20.3297,-40.2925,82.35,7
Padang,99,ID,1638731028,87,-0.9492,100.3543,76.77,2.46
Marmaris,100,TR,1638731029,81,36.855,28.2742,62.11,5.32
Aginskoye,39,RU,1638731030,85,51.1,114.53,13.06,6.13
Petrolina de Goiás,100,BR,1638731032,72,-16.095,-49.3381,86.16,3
Makakilo City,90,US,1638731033,84,21.3469,-158.0858,71.35,0
Leshukonskoye,18,RU,1638731034,96,64.8989,45.7622,6.93,4.18
Vanavara,100,RU,1638731036,96,60.34,102.2797,4.64,3.85
Malaya Serdoba,2,RU,1638731037,66,52.4661,44.9512,27.93,5.61
Mango,40,US,1638731039,57,27.9797,-82.3065,83.05,6.91
Wanning,27,CN,1638731040,74,18.8003,110.3967,63.01,9.26
Wattegama,1,LK,1638731042,96,6.7989,81.4808,74.32,1.45
Nanortalik,78,GL,1638730841,61,60.1432,-45.2371,28.36,25.3
Puerto Palomas,0,MX,1638731044,20,31.7667,-107.6167,65.53,8.43
Mlimba,92,TZ,1638731046,92,-8.8,35.8167,73.9,1.68
Vilhena,100,BR,1638730869,89,-12.7406,-60.1458,77.49,1.36
Le Port,17,RE,1638730864,79,-20.9373,55.2919,78.8,6.8
Arkhara,98,RU,1638731049,99,49.4212,130.0842,11.48,3.4
Bonavista,97,CA,1638731051,59,48.6499,-53.1147,35.11,15.21
Novochernorechenskiy,100,RU,1638731052,94,56.2669,91.0828,24.87,11.68
San Cristobal,49,VE,1638731004,42,7.7669,-72.225,82.58,6.73
Philadelphia,93,US,1638730810,35,39.9523,-75.1638,55.11,1.99
Constitución,3,CL,1638731055,52,-35.3333,-72.4167,70.9,6.13
Cruz do Espírito Santo,75,BR,1638731056,70,-7.14,-35.0864,84.76,12.66
Lādnūn,2,IN,1638731057,66,27.65,74.3833,62.8,1.1
Dumas,1,US,1638731058,20,35.8656,-101.9732,72.75,14.97
Tuatapere,100,NZ,1638731059,81,-46.1333,167.6833,46.81,2.95
Waipawa,100,NZ,1638731061,96,-41.4122,175.5153,53.46,9.24
Kirakira,100,SB,1638731062,84,-10.4544,161.9205,80.17,3.4
Polson,16,US,1638731063,58,47.6936,-114.1632,33.12,10
São João da Barra,4,BR,1638731064,76,-21.6403,-41.0511,77.25,14.79
Arlit,5,NE,1638731065,15,18.7369,7.3853,73.17,9.62
Majene,100,ID,1638731066,86,-3.5403,118.9707,76.84,5.35
Yelovo,98,RU,1638731067,79,57.0538,54.9207,9.88,8.72
Sayyan,0,YE,1638731068,32,15.1718,44.3244,50.63,2.64
Haapiti,38,PF,1638731069,67,-17.5667,-149.8667,83.93,17.13
Cedar City,1,US,1638731070,31,37.6775,-113.0619,56.39,3.44
Ust-Tsilma,77,RU,1638731072,99,65.441,52.1498,3.38,3.24
Bethel,1,US,1638730966,39,41.3712,-73.414,46.99,1.01
Nátaga,87,CO,1638731074,62,2.5436,-75.8085,75.88,2.3
Rabo de Peixe,75,PT,1638731075,96,37.8,-25.5833,64.27,5.75
Lagoa,21,PT,1638731076,74,39.05,-27.9833,63.25,11.5
São Filipe,44,CV,1638731077,71,14.8961,-24.4956,76.37,12.35
Scarborough,36,GB,1638731078,84,54.2797,-0.4044,43.92,1.99
Seminole,20,US,1638731079,64,28.7086,-81.2081,82.15,6.91
Carballo,99,ES,1638731081,89,43.213,-8.691,54.55,5.91
Farmington,1,US,1638731082,36,36.7281,-108.2187,60.21,8.05
Kouroussa,1,GN,1638731083,20,10.65,-9.8833,80.89,2.73
Faanui,84,PF,1638731084,73,-16.4833,-151.75,80.46,17.09
Leer,20,SS,1638731085,27,8.3018,30.1418,83.35,5.59
Xining,2,CN,1638731086,41,36.6167,101.7667,26.83,0.63
Gamboma,100,CG,1638731087,75,-1.8764,15.8644,77.65,3.22
Kokopo,100,PG,1638731088,88,-4.352,152.2633,76.55,2.48
Camocim,20,BR,1638731090,64,-2.9022,-40.8411,87.35,21.39
Ammon,1,US,1638731091,57,43.4696,-111.9666,45.95,3
Katima Mulilo,100,NA,1638731092,77,-17.5,24.2667,70.21,4.56
Lebu,0,CL,1638731093,61,-37.6167,-73.65,65.05,13.58
Taltal,27,CL,1638730891,61,-25.4,-70.4833,68.61,7.29
Kaseda-shirakame,98,JP,1638731095,73,31.4167,130.3167,52.38,7.36
La Palma,90,US,1638730880,92,33.8464,-118.0467,76.1,0
Dalbandin,0,PK,1638731097,40,28.8947,64.4101,53.1,7.43
Hefei,0,CN,1638730810,46,31.8639,117.2808,47.79,2.84
Biak,100,ID,1638731100,86,-0.9131,122.8766,76.48,7.94
Lüderitz,0,NA,1638731102,83,-26.6481,15.1594,62.85,14.74
Lexington,1,US,1638731106,56,37.9887,-84.4777,66.42,3
Anadyr,100,RU,1638731051,85,64.75,177.4833,14,31
Canguçu,96,BR,1638731110,69,-31.395,-52.6756,70.81,9.8
Ruteng,100,ID,1638731111,93,-8.6136,120.4721,62.62,2.24
Zhezkazgan,100,KZ,1638731112,99,47.8043,67.7144,32.74,6.62
Todos Santos,100,MX,1638731114,69,23.45,-110.2167,84,8.95
Sekoma,100,BW,1638731115,70,-24.4,23.8833,71.69,3.09
Niquelândia,95,BR,1638731116,80,-14.4739,-48.4597,78.37,2.57
Wanaka,100,NZ,1638731117,86,-44.7,169.15,45.1,1.99
Gizo Government Station,100,SB,1638731118,78,-8.103,156.8419,81.55,2.01
Saint-Paul,17,RE,1638731120,80,-21.0096,55.2707,78.91,2.68
Woodward,1,US,1638731121,28,36.4337,-99.3904,72.63,8.05
Ust-Maya,100,RU,1638731122,97,60.4167,134.5333,2.44,1.88
Dongsheng,0,CN,1638731123,42,39.8161,109.9776,25.3,14.99
Mpophomeni,100,ZA,1638731124,76,-29.5682,30.1862,64.31,6.04
Eyl,39,SO,1638731125,70,7.9803,49.8164,77.38,18.21
Grand Forks,90,US,1638731126,86,47.9417,-97.4337,26.53,19.57
Kloulklubed,100,PW,1638731128,76,7.0419,134.2556,82.99,6.85
Tilichiki,99,RU,1638731129,95,60.4667,166.1,-1.37,3.02
Osijek,90,HR,1638730883,100,45.5511,18.6939,39.42,5.75
Baykit,100,RU,1638731131,95,61.67,96.37,-1.98,2.75
Emerald,84,AU,1638731132,66,-23.5333,148.1667,71.98,11.63
Provideniya,100,RU,1638731134,97,64.3833,-173.3,30.67,24.74
Kununurra,40,AU,1638731135,94,-15.7667,128.7333,75.18,3.44
Elbistan,1,TR,1638731136,72,38.2059,37.1983,39.7,1.41
Havelock,100,US,1638731137,71,34.8791,-76.9013,67.95,5.01
Rybnoye,64,RU,1638731138,87,54.7256,39.5119,25.25,5.32
Rivadavia,17,AR,1638730941,35,-33.1905,-68.4608,81.57,7.45
Puerto Limón,8,CR,1638731122,68,10,-83.0333,83.03,6.2
Tamiahua,3,MX,1638731142,66,21.2667,-97.45,80.87,10.47
Virginia Beach,0,US,1638730843,71,36.8529,-75.978,60.04,1.99
Yangi Marg`ilon,100,UZ,1638731144,70,40.4272,71.7189,41.72,2.3
Sines Municipality,0,PT,1638731145,77,37.9562,-8.8698,57.29,8.99
Härnösand,100,SE,1638731146,70,62.6323,17.9379,16,9.82
Cravo Norte,89,CO,1638731147,48,6.3017,-70.2041,88.86,8.68
Grindavik,90,IS,1638731148,87,63.8424,-22.4338,43.27,34.52
Imeni Zhelyabova,36,RU,1638731149,99,58.9544,36.5956,-6.48,4.56
Benjamín Hill,0,MX,1638731151,20,30.1667,-111.1,71.44,5.37
Corn Island,1,NI,1638731152,79,12.1694,-83.0418,81.52,17.83
Safi,0,MA,1638731153,78,32.2994,-9.2372,61.32,23.02
Nioro,79,GM,1638731154,15,13.35,-15.75,87.3,7.25
Ingham,90,US,1638731155,63,42.6,-84.3833,37.58,10.36
Mazara del Vallo,100,IT,1638731156,89,37.6641,12.588,52,21.7
Mareeba,4,AU,1638731158,91,-17,145.4333,72.32,3.53
Makīnsk,41,KZ,1638731159,96,52.6292,70.4169,9.93,5.68
Pacifica,75,US,1638731160,82,37.6138,-122.4869,65.71,3
Marawi,100,PH,1638731163,97,7.9986,124.2928,64.65,1.32
Bījār,35,IR,1638731164,31,35.8668,47.6051,37.13,3.74
Mountain Home,1,US,1638731166,61,43.133,-115.6912,47.68,23.02
Salalah,0,OM,1638731167,56,17.0151,54.0924,73.49,4.61
Xudat,42,AZ,1638731168,83,41.631,48.681,48.02,12.26
Luorong,1,CN,1638731169,53,24.4058,109.6086,52.86,4.32
Sharjah city,0,AE,1638731135,62,25.3573,55.4033,75.18,2.3
Tyrma,100,RU,1638731172,98,50.0833,132.1667,6.76,1.81
Garissa,84,KE,1638731173,64,-0.4536,39.6401,81.28,12.82
Ellensburg,1,US,1638731174,61,46.9965,-120.5479,41.13,1.01
Amahai,99,ID,1638731175,83,-3.3333,128.9167,78.75,2.48
Kayes,54,ML,1638731176,11,14,-11,87.1,8.68
Sovetskiy,94,RU,1638730977,99,61.3614,63.5842,-8.25,3.33
Mount Isa,75,AU,1638730903,69,-20.7333,139.5,74.97,6.91
Fort Nelson,8,CA,1638731180,89,58.8053,-122.7002,-7.46,1.81
Severobaykal'sk,100,RU,1638731181,82,55.65,109.3167,17.2,8.59
North Bend,1,US,1638731182,90,43.4065,-124.2243,49.91,8.05
Kibala,74,TD,1638731183,24,9.1104,18.3463,84.56,3.18
San Quintín,0,MX,1638731184,68,30.4833,-115.95,65.21,10.87
Kincardine,7,GB,1638731185,86,56.0667,-3.7167,35.19,1.74
Baley,7,RU,1638731186,94,51.6,116.6333,1.18,5.12
Snåase,9,NO,1638731188,88,64.2457,12.3778,15.21,7.4
Zastron,100,ZA,1638731189,86,-30.3023,27.084,57.06,15.26
Iqaluit,100,CA,1638731020,66,63.7506,-68.5145,9.7,25.01
Port-Cartier,59,CA,1638731191,56,50.0334,-66.8654,20.75,11.36
Ponta do Sol,62,PT,1638731192,71,32.6667,-17.1,66.83,6.8
Esperance,56,AU,1638731193,80,-33.8667,121.9,60.39,9.73
Ubari,0,LY,1638731194,23,26.5921,12.7805,54.1,10.2
Campbell River,99,CA,1638731196,76,50.0163,-125.2446,38.26,3.29
Isla Vista,1,US,1638731197,53,34.4133,-119.861,77.31,5.75
La Sarre,100,CA,1638731198,80,48.8002,-79.1996,12.58,6.67
Shubarkuduk,100,KZ,1638731199,71,49.1447,56.4872,30.24,8.03
Barcelona,20,ES,1638731101,51,41.3888,2.159,51.87,3
Kakuda,9,JP,1638731201,79,37.9667,140.7833,29.79,3.94
Takoradze,97,GH,1638731202,81,4.8845,-1.7554,81.28,10.54
Kiryat Gat,2,IL,1638731204,14,31.61,34.7642,61.39,8.19
Santo Antônio do Içá,75,BR,1638731205,89,-3.1022,-67.9397,82.06,2.28
Ust-Nera,100,RU,1638731206,98,64.5667,143.2,-26.63,5.5
Manavālakurichi,77,IN,1638731207,85,8.1333,77.3,80.69,7.7
Bubaque,98,GW,1638731208,65,11.2833,-15.8333,81.41,10.85
Dubno,98,UA,1638731209,95,50.4169,25.7343,30.88,4.83
Rathdrum,1,US,1638731211,60,47.8137,-116.892,34.74,1.99
Arrondissement du Havre,90,FR,1638731212,81,49.5833,0.3333,46.17,21.85
Oussouye,96,SN,1638731213,45,12.485,-16.5469,78.58,6.26
Pinheiro Machado,88,BR,1638731214,82,-31.5783,-53.3811,72.05,9.69
Beringovskiy,100,RU,1638731215,83,63.05,179.3167,7.48,42.77
Mahébourg,40,MU,1638731216,73,-20.4081,57.7,79.25,8.05
Sørland,100,NO,1638731217,69,67.667,12.6934,28.26,10.54
Kudahuvadhoo,88,MV,1638731219,75,2.6708,72.8944,82.47,17.09
Hazorasp,0,UZ,1638731220,73,41.3194,61.0742,30.04,8.39
Lorengau,53,PG,1638731221,81,-2.0226,147.2712,83.48,14.61
Great Yarmouth,100,GB,1638731223,79,52.6083,1.7305,43.95,21.63
Port Lincoln,0,AU,1638731224,83,-34.7333,135.8667,56.5,3.02
Grasse,0,FR,1638731225,42,43.6667,6.9167,45.19,2.3
Kalianget,100,ID,1638731226,85,-7.05,113.9333,78.6,3.31
La Constancia,100,MX,1638731228,29,24.2231,-107.1869,80.51,4.65
Alofi,79,NU,1638731229,83,-19.0595,-169.9187,78.76,18.66
Ketchikan,90,US,1638731230,86,55.3422,-131.6461,28.87,0
Kaluzhskaya Oblast’,100,RU,1638731231,96,54.5,35.5,26.11,5.23
Cairns,1,AU,1638731232,86,-16.9167,145.7667,76.95,8.05
Dabola,8,GN,1638731233,26,10.75,-11.1167,78.6,1.28
Key Largo,6,US,1638731234,63,25.0865,-80.4473,83.01,5.59
Daru,100,PG,1638731236,85,-9.0763,143.2092,77.72,3.44
Galle,79,LK,1638730946,86,6.0367,80.217,78.64,3.71
Kulhudhuffushi,12,MV,1638731238,79,6.6221,73.07,80.6,6.96
Kuril'sk,81,RU,1638731239,72,45.2333,147.8833,35.69,10.54
Mehamn,85,NO,1638731240,89,71.0357,27.8492,30.38,22.55
Van,75,TR,1638731063,86,38.4924,43.3831,29.55,3.44
Shingū,100,JP,1638731238,88,33.7333,135.9833,51.53,4.41
Galich,47,RU,1638731243,97,58.3797,42.3475,0.36,3.04
Cayenne,75,GF,1638731245,83,4.9333,-52.3333,84.24,1.99
Autazes,62,BR,1638731246,75,-3.5797,-59.1306,85.17,1.23
Vestmanna,75,FO,1638731247,74,62.1564,-7.1664,31.12,3.44
Shimoda,100,JP,1638731248,83,34.6667,138.95,48.11,15.64
Zhigansk,100,RU,1638731249,91,66.7697,123.3711,-27.31,8.08
Lianhe,100,CN,1638731251,87,47.1333,129.2667,27.63,5.48
Paraty,93,BR,1638731252,94,-23.2178,-44.7131,75.36,3.6
Necochea,0,AR,1638730963,55,-38.5473,-58.7368,68.04,13.24
Kerema,82,PG,1638731254,84,-7.9631,145.7785,77,3.67
Kamenka,64,RU,1638731255,69,51.3223,42.7678,21.74,6.49
Wangkui,81,CN,1638731256,91,46.8333,126.5,12.38,6.29
Ouésso,74,CG,1638731257,77,1.6136,16.0517,76.42,2.86
Elmadağ,9,TR,1638731258,70,39.9208,33.2308,43.34,3.91
San Jerónimo,100,PE,1638731260,82,-11.9472,-75.2829,51.69,4.76
Sioux Lookout,100,CA,1638731261,87,50.1001,-91.917,22.23,4.41
Vorontsovka,98,RU,1638731262,68,50.6132,40.3549,28.35,6.04
Qasigiannguit,100,GL,1638731263,62,68.8193,-51.1922,34.05,19.1
Troitskoye,98,RU,1638731264,97,52.9821,84.6757,12.92,4.05
Vangaindrano,1,MG,1638731265,90,-23.35,47.6,75.79,7.92
Chinsali,88,ZM,1638731266,48,-10.5414,32.0816,72.9,4.05
Batamshinskiy,100,KZ,1638731268,85,50.5594,58.2747,22.68,9.46
Rawson,8,AR,1638731002,46,-43.3002,-65.1023,70.66,17.16
Avera,100,US,1638731270,58,33.194,-82.5271,74.08,4.81
Nkoteng,100,CM,1638731271,69,4.5167,12.0333,75.06,3.62
Krasnosel'kup,32,RU,1638731272,100,65.7,82.4667,-36.31,3.2
Berlevåg,43,NO,1638731274,85,70.8578,29.0864,8.4,22.12
Barguzin,76,RU,1638731275,88,53.6167,109.6167,15.58,6.49
San Juan,1,AR,1638731105,32,-31.5375,-68.5364,84.33,4.61
Maha Sarakham,96,TH,1638731277,57,16.3333,103.6667,60.4,8.14
Khasan,2,RU,1638731278,72,42.4308,130.6434,27.14,5.23
Riyadh,5,SA,1638731128,31,24.6877,46.7219,62.74,8.7
Quatre Cocos,28,MU,1638731281,70,-20.2078,57.7625,79.09,12.66
Stokmarknes,0,NO,1638731283,58,68.5646,14.9108,22.98,13.8
Pyaozerskiy,76,RU,1638731284,98,65.8333,31.1667,-3.01,3.6
Kristinestad,6,FI,1638731286,89,62.2743,21.376,4.89,7.96
Luwuk,100,ID,1638731287,88,-0.9516,122.7875,77.79,5.61
Novo Aripuanã,65,BR,1638731288,69,-5.1206,-60.3797,86.7,2.91
Raja,94,SS,1638731289,26,8.4596,25.678,81.54,4.74
Stillwater,1,US,1638731291,38,36.1156,-97.0584,75.78,8.99
Caravelas,0,BR,1638731292,65,-17.7125,-39.2481,80.6,8.03
Wenden,98,DE,1638731293,90,50.9667,7.8667,39.04,3.09
Oruzgan,0,AF,1638731294,63,32.8333,66,37.02,0.81
Sur,0,OM,1638731296,69,22.5667,59.5289,74.17,6.55
Puerto Carreño,43,CO,1638731297,38,6.189,-67.4859,95.76,8.66
Luyang,0,CN,1638731298,69,27.6239,110.0989,48.99,1.48
Tūkrah,30,LY,1638731299,76,32.5341,20.5791,62.92,12.33
Coaticook,92,CA,1638731300,63,45.1334,-71.7991,28.36,7.07
Shitanjing,2,CN,1638731301,35,39.2342,106.3439,29.23,3.89
Orbetello,12,IT,1638731302,72,42.4408,11.2196,48.61,7.27
Esim,50,GH,1638731304,82,4.8699,-2.2405,80.89,8.03
Santa Rosa,53,PH,1638731305,85,14.3122,121.1114,74.08,7.72
Caconda,100,AO,1638731306,86,-13.7333,15.0667,61.32,1.57
Coahuayana Viejo,98,MX,1638731307,52,18.7333,-103.6833,89.08,5.93
Santa Vitória do Palmar,66,BR,1638731308,63,-33.5189,-53.3681,72.27,12.06
Puerto Escondido,1,MX,1638731309,62,15.85,-97.0667,86.83,6.91
Mokhotlong,100,LS,1638731169,62,-29.2894,29.0675,59.49,5.79
Baruun-Urt,1,MN,1638731312,76,46.6806,113.2792,18.77,7.18
Marystown,100,CA,1638731313,100,47.1666,-55.1483,37.85,1.01
Mankono,7,CI,1638731314,32,8.0586,-6.1897,84.02,2.95
Praia,0,CV,1638731315,73,14.9215,-23.5087,75.74,14.97
Uyuni,65,BO,1638731317,38,-20.4597,-66.825,62.98,12.12
Buala,99,SB,1638731318,84,-8.145,159.5921,79.48,5.03
Kisangani,100,CD,1638731319,99,0.5167,25.2,71.02,0.85
Riberalta,100,BO,1638731320,72,-10.9833,-66.1,82.87,3.53
Poso,100,ID,1638731321,83,-1.3959,120.7524,77.7,3.13
Yar-Sale,10,RU,1638731322,94,66.8333,70.8333,-17,13.4
Vynohradove,100,UA,1638731323,82,46.3696,32.9398,38.64,8.14
General Pico,0,AR,1638731324,36,-35.6566,-63.7568,78.39,6.76
Kalmunai,8,LK,1638731326,83,7.4167,81.8167,78.42,1.79
Teguise,20,ES,1638731327,72,29.0605,-13.564,61.02,19.57
Korla,100,CN,1638731328,45,41.7597,86.1469,30.38,3.47
Caxito,100,AO,1638731329,92,-8.5785,13.6643,76.8,1.95
Aswān,5,EG,1638731330,24,24.0934,32.907,64.54,13.44
Kula,1,TR,1638731331,84,38.5473,28.6498,49.5,3.87
Rome,90,US,1638731322,75,43.2128,-75.4557,41.13,6.91
São Sepé,66,BR,1638731333,50,-30.1606,-53.5653,81.3,8.5
